City,Jan,Feb,Mar,Apr,May,Jun,Jul,Aug,Sep,Oct,Nov,Dec,Latitude,Longitude
Kabul,177.2,178.6,204.5,232.5,310.3,353.4,356.8,339.7,303.9,282.6,253.2,182.4,34.5260109,69.1776838
Baku,89.9,89.0,124.0,195.0,257.3,294.0,313.1,282.1,222.0,145.7,93.0,102.3,40.163999149999995,50.27770925520258
Beirut,133.0,148.0,194.0,246.0,312.0,352.0,361.0,333.0,288.0,246.0,202.0,149.0,33.8959203,35.47843
Dhaka,279.0,226.0,217.0,180.0,155.0,90.0,62.0,62.0,90.0,186.0,240.0,279.0,23.7644025,90.389015
Beijing,194.1,194.7,231.8,251.9,283.4,261.4,212.4,220.9,232.1,222.1,185.3,180.7,39.9057136,116.3912972
Chongqing,48.0,56.0,81.0,111.0,139.0,128.0,221.0,222.0,123.0,63.0,47.0,54.0,30.05518,107.8748712
Fuzhou,101.6,79.2,89.1,111.0,114.4,141.9,225.6,199.2,153.7,144.2,120.3,126.9,27.9511188,116.3530413
Guangzhou,118.5,71.6,62.4,65.1,104.0,140.2,202.0,173.5,170.2,181.8,172.7,166.0,23.1301964,113.2592945
Hong Kong,143.0,94.2,90.8,101.7,140.4,146.1,212.0,188.9,172.3,193.9,180.1,172.2,22.350627,114.1849161
Lhasa,250.9,226.7,246.1,248.9,276.6,257.3,227.4,219.6,229.0,281.7,267.4,258.6,29.6553895,91.1704736
Macau,127.4,79.4,71.5,85.3,136.4,155.3,223.2,195.4,176.5,192.3,172.2,159.1,22.1757605,113.5514142
Nanjing,124.7,120.3,144.7,169.2,194.2,162.8,196.7,201.6,164.0,164.2,147.4,137.1,32.0438284,118.7788631
Ningbo,123.7,108.4,121.7,142.4,156.7,147.8,243.8,238.0,171.5,166.5,143.4,146.1,29.8622194,121.6203873
Qingdao,186.0,180.8,220.1,222.0,244.9,219.0,182.9,223.2,219.0,220.1,189.0,182.9,36.0637967,120.3192081
Shanghai,114.3,119.9,128.5,148.5,169.8,130.9,190.8,185.7,167.5,161.4,131.1,127.4,31.2312707,121.4700152
Tianjin,170.1,170.2,202.4,223.8,249.0,226.9,206.4,204.4,205.3,196.1,163.0,157.6,39.3032619,117.4163641
Ürümqi,101.6,128.8,180.5,248.0,283.3,282.7,298.7,301.0,262.6,224.4,127.4,84.3,43.419754,87.319461
Wuhan,101.9,97.0,121.8,152.8,181.0,170.9,220.2,226.4,175.8,151.9,139.3,126.5,30.5951051,114.2999353
Xiamen,133.3,88.3,89.6,105.6,132.6,163.8,234.6,211.6,178.9,188.4,163.0,163.5,24.4801069,118.0853479
Delhi,214.6,216.1,239.1,261.0,263.1,196.5,165.9,177.0,219.0,269.3,247.2,215.8,28.6273928,77.1716954
Kolkata,203.9,201.2,225.8,235.4,227.1,123.1,93.1,104.9,116.2,182.6,190.8,203.4,22.5726459,88.3638953
Mumbai,269.5,257.6,274.3,283.7,296.2,148.6,73.4,75.9,165.1,240.2,245.8,253.2,19.0785451,72.878176
Bangalore,262.0,248.0,271.0,257.0,241.0,137.0,112.0,114.0,144.0,173.0,190.0,212.0,12.98815675,77.62260003796
Chennai,232.5,240.1,291.4,294.0,300.7,234.0,142.6,189.1,195.0,257.3,261.0,210.8,13.0836939,80.270186
Denpasar,173.1,174.0,210.7,224.7,242.9,228.1,246.8,261.7,251.3,252.5,224.4,176.4,-8.6524973,115.2191175
Jakarta,189.1,180.8,238.7,255.0,260.4,255.0,282.1,294.5,300.7,279.0,231.0,217.0,-6.175247,106.8270488
Makassar,155.0,168.0,186.0,240.0,248.0,241.0,270.0,298.0,300.0,305.0,280.0,158.0,-5.1342962,119.4124282
Medan,129.6,141.0,153.1,131.2,134.8,157.9,153.9,143.9,123.1,116.3,104.8,98.1,3.5896654,98.6738261
Bandar Abbas,220.1,211.9,232.5,242.4,312.7,302.2,264.6,270.1,270.1,283.4,251.2,228.8,27.1793466,56.2781423
Isfahan,205.3,213.3,242.1,244.5,301.3,345.4,347.6,331.2,311.6,276.5,226.1,207.6,32.6707877,51.6650002
Mashhad,148.3,147.5,163.3,200.4,280.4,343.2,366.9,359.7,305.2,249.5,188.3,151.6,36.2974945,59.6059232
Tehran,137.2,151.1,186.0,219.1,279.8,328.7,336.6,336.8,300.5,246.8,169.4,134.1,35.6892523,51.3896004
Baghdad,192.2,203.3,244.9,255.0,300.7,348.0,347.2,353.4,315.0,272.8,213.0,195.3,33.3061701,44.3872213
Tel Aviv,192.2,200.1,235.6,270.0,328.6,357.0,368.9,356.5,300.0,279.0,234.0,189.1,32.0852997,34.7818064
Sapporo,92.5,104.0,146.6,176.5,198.4,187.8,164.9,171.0,160.5,152.3,100.0,85.9,43.061936,141.3542924
Sendai,148.1,151.8,177.0,188.5,185.2,133.8,119.5,144.4,121.2,148.6,139.6,138.6,38.2677554,140.8691498
Tokyo,184.5,165.8,163.1,176.9,167.8,125.4,146.4,169.0,120.9,131.0,147.9,178.0,35.6821936,139.762221
Kanazawa,63.5,84.1,141.3,185.5,202.3,152.6,158.9,221.5,144.1,150.4,104.1,72.5,36.5780499,136.6480247
Nagoya,170.1,170.0,189.1,196.6,197.5,149.9,146.3,200.4,151.0,169.0,162.7,172.2,35.1851045,136.8998438
Almaty,118.0,119.0,147.0,194.0,241.0,280.0,306.0,294.0,245.0,184.0,127.0,101.0,43.2363924,76.9457275
Astana,103.0,147.0,192.0,238.0,301.0,336.0,336.0,294.0,230.0,136.0,100.0,94.0,51.1282205,71.4306682
Ulaanbaatar,179.1,204.8,265.2,262.5,299.3,269.0,249.3,258.3,245.7,227.5,177.4,156.4,47.9184676,106.9177016
Pyongyang,184.0,197.0,231.0,237.0,263.0,229.0,181.0,204.0,222.0,214.0,165.0,165.0,39.0167979,125.7473609
Muscat,268.6,244.8,278.3,292.5,347.4,325.7,277.7,278.6,303.9,316.9,291.9,267.0,23.61515,58.5912467
Karachi,270.7,249.4,271.6,277.4,299.1,231.8,155.0,147.7,218.8,283.5,273.3,272.0,24.8546842,67.0207055
Lahore,218.8,215.0,245.8,276.6,308.3,269.0,227.5,234.9,265.6,290.0,259.6,222.9,31.5656822,74.3141829
Quetta,229.1,209.95,232.5,273.0,334.8,327.0,313.1,313.1,294.0,306.9,279.0,238.7,-23.1360145,146.95107755720153
Manila,176.7,197.8,225.8,258.0,222.7,162.0,132.8,132.8,132.0,157.6,153.0,151.9,14.5906346,120.9799964
Dikson,0.0,22.6,127.1,237.0,189.1,141.0,223.2,139.5,60.0,24.8,0.0,0.0,73.5084564,80.5227886
Irkutsk,93.0,149.0,207.0,223.0,266.0,264.0,243.0,218.0,182.0,152.0,93.0,62.0,56.6370122,104.719221
Omsk,68.0,125.0,184.0,235.0,284.0,319.0,321.0,248.0,180.0,105.0,71.0,61.0,54.991375,73.371529
"Petropavlovsk-
Kamchatsky",105.4,115.8,176.7,192.0,192.2,192.0,170.5,176.7,177.0,158.1,123.0,93.0,53.0199838,158.6471356
Vladivostok,178.0,184.0,216.0,192.0,199.0,130.0,122.0,149.0,197.0,205.0,168.0,156.0,43.1150678,131.8855768
Yakutsk,18.6,98.0,232.5,273.0,303.8,333.0,347.2,272.8,174.0,105.4,60.0,9.3,62.0274078,129.7319787
Abha,266.6,265.6,294.5,282.0,288.3,276.0,232.5,238.7,273.0,291.4,273.0,266.6,18.2164282,42.5043596
Riyadh,212.4,226.6,219.8,242.3,287.7,328.2,332.1,309.2,271.6,311.4,269.2,214.3,24.638916,46.7160104
Singapore,172.4,183.2,192.7,173.6,179.8,177.7,187.9,180.6,156.2,155.2,129.6,133.5,1.357107,103.8194992
Busan,199.0,182.5,193.0,210.0,221.7,179.7,165.8,200.9,167.2,208.9,194.4,204.3,35.1799528,129.0752365
Seoul,160.3,163.3,189.0,205.0,213.0,182.0,120.0,152.5,176.2,198.8,153.2,152.6,37.5666791,126.9782914
Kaohsiung,174.7,165.8,187.0,189.1,198.5,199.9,221.4,193.7,175.7,182.4,162.2,161.8,22.6203348,120.3120375
Taichung,176.6,140.6,149.9,137.8,158.7,160.1,199.6,178.7,175.8,203.7,179.4,182.3,24.163162,120.6478282
Taipei,80.6,71.3,89.6,92.6,113.7,121.7,179.0,188.9,153.7,124.0,99.4,90.7,25.0375198,121.5636796
Bangkok,272.5,249.9,269.0,256.7,216.4,178.0,171.8,160.3,154.9,198.1,234.2,262.0,-7.33495,110.6589317
Chiang Mai,272.8,257.1,294.5,279.0,198.4,156.0,120.9,117.8,144.0,201.5,216.0,254.2,18.7882778,98.9858802
Hat Yai,182.9,166.7,186.0,144.0,114.7,111.0,114.7,114.7,108.0,111.6,105.0,108.5,7.0074644,100.4689889
Nakhon Ratchasima,226.3,211.9,201.5,186.0,155.0,114.0,117.8,117.8,108.0,145.7,186.0,226.3,15.2241917,101.9313754
Ankara,77.5,98.9,161.2,189.0,260.4,306.0,350.3,328.6,276.0,198.4,132.0,71.3,39.7160439,32.7059948
Dubai,254.2,229.6,254.2,294.0,344.1,342.0,322.4,316.2,309.0,303.8,285.0,254.2,25.074282349999997,55.18853865430702
Tashkent,117.8,127.1,164.3,216.0,303.8,363.0,384.4,365.8,300.0,226.3,150.0,105.4,41.3123363,69.2787079
Da Lat,255.0,234.0,255.0,202.0,190.0,147.0,157.0,136.0,133.0,140.0,172.0,215.0,11.93832958,108.436331588
Da Nang,139.0,145.0,188.0,209.0,246.0,239.0,253.0,218.0,176.0,145.0,120.0,103.0,16.068,108.212
Hanoi,74.0,47.0,47.0,90.0,183.0,172.0,195.0,174.0,176.0,167.0,137.0,124.0,21.0283334,105.854041
Ho Chi Minh City,245.0,246.0,272.0,239.0,195.0,171.0,180.0,172.0,162.0,182.0,200.0,226.0,10.7763897,106.7011391
